[{
        "id": "new-york",
        "name": "New York",
        "latitude": 40.7128,
        "longitude": -74.0060
    },
    {
        "id": "los-angeles",
        "name": "Los Angeles",
        "latitude": 34.0522,
        "longitude": -118.2437
    },

    {
        "id": "shanghai",
        "name": "Shanghai",
        "latitude": 31.2304,
        "longitude": 121.4737
    },
    {
        "id": "london",
        "name": "London",
        "latitude": 51.5074,
        "longitude": -0.1278
    },
    {
        "id": "sydney",
        "name": "Sydney",
        "latitude": -33.8688,
        "longitude": 151.2093
    },
    {
        "id": "tokyo",
        "name": "Tokyo",
        "latitude": 35.6804,
        "longitude": 139.7690
    },
    {
        "id": "moscow",
        "name": "Moscow",
        "latitude": 55.7558,
        "longitude": 37.6173
    },
    {
        "id": "abu-dhabi",
        "name": "Abu Dhabi",
        "latitude": 24.4539,
        "longitude": 54.3773
    },
    {
        "id": "dehli",
        "name": "Dehli",
        "latitude": 28.7041,
        "longitude": 77.1025
    },
    {
        "id": "sao-paulo",
        "name": "Sao Paulo",
        "latitude": -23.5505,
        "longitude": -46.6333
    }


]